[
  {
    "id": 9001,
    "name": "بايرويت، ألمانيا",
    "lat": 49.945521,
    "lng": 11.570520
  },
  {
    "id": 9002,
    "name": "الرباط",
    "lat": 34.020882,
    "lng": -6.841650
  },
  {
    "id": 9003,
    "name": "مراكش",
    "lat": 31.628674,
    "lng": -7.992047
  },
  {
    "id": 9004,
    "name": "الدار البيضاء",
    "lat": 33.589886,
    "lng": -7.603869
  },
  {
    "id": 9005,
    "name": "أڭادير",
    "lat": 30.427755,
    "lng": -9.598107
  },
  {
    "id": 9006,
    "name": "وجدة",
    "lat": 34.689404,
    "lng": -1.912823
  },
  {
    "id": 9007,
    "name": "الصخيرات",
    "lat": 33.8499966,
    "lng": -7.024666568
  },
  {
    "id": 9008,
    "name": "طنجة",
    "lat": 35.76727,
    "lng": -5.79975
  },
  {
    "id": 9009,
    "name": "فاس",
    "lat": 34.03313,
    "lng": -5.00028
  },
  {
    "id": 9010,
    "name": "سلا",
    "lat": 34.0531,
    "lng": -6.79846
  },
  {
    "id": 9011,
    "name": "مكناس",
    "lat": 33.89352,
    "lng": -5.54727
  }
]