[
  {
    "id": 9001,
    "name": "بايرويت، ألمانيا",
    "lat": 49.945521,
    "lng": 11.570520
  },
  {
    "id": 9002,
    "name": "الرباط",
    "lat": 34.020882,
    "lng": -6.841650
  },
  {
    "id": 9003,
    "name": "مراكش",
    "lat": 31.628674,
    "lng": -7.992047
  },
  {
    "id": 9004,
    "name": "الدار البيضاء",
    "lat": 33.589886,
    "lng": -7.603869
  },
  {
    "id": 9005,
    "name": "أڭادير",
    "lat": 30.427755,
    "lng": -9.598107
  },
  {
    "id": 9006,
    "name": "وجدة",
    "lat": 34.689404,
    "lng": -1.912823
  },
  {
    "id": 9007,
    "name": "الصخيرات",
    "lat": 33.8499966,
    "lng": -7.024666568
  },
  {
    "id": 9008,
    "name": "طنجة",
    "lat": 35.76727,
    "lng": -5.79975
  },
  {
    "id": 9009,
    "name": "فاس",
    "lat": 34.03313,
    "lng": -5.00028
  },
  {
    "id": 9010,
    "name": "سلا",
    "lat": 34.0531,
    "lng": -6.79846
  },
  {
    "id": 9011,
    "name": "مكناس",
    "lat": 33.89352,
    "lng": -5.54727
  },
  {
    "id": 9012,
    "name": "الحسيمة",
    "lat": 35.25165,
    "lng": -3.93723
  },
  {
    "id": 9013,
    "name": "القنيطرة",
    "lat": 34.26101,
    "lng": -6.5802
  },
  {
    "id": 9014,
    "name": "تطوان",
    "lat": 35.57845,
    "lng": -5.36837
  },
  {
    "id": 9015,
    "name": "أسفي",
    "lat": 32.29939,
    "lng": -9.23718
  },
  {
    "id": 9016,
    "name": "المحمدية",
    "lat": 33.68607,
    "lng": -7.38298
  },
  {
    "id": 9017,
    "name": "خريبكة",
    "lat": 32.88108,
    "lng": -6.9063
  },
  {
    "id": 9018,
    "name": "بني ملال",
    "lat": 32.33725,
    "lng": -6.34983
  },
  {
    "id": 9019,
    "name": "الجديدة",
    "lat": 33.25492,
    "lng": -8.50602
  },
  {
    "id": 9020,
    "name": "تازة",
    "lat": 34.21,
    "lng": -4.01
  },
  {
    "id": 9021,
    "name": "الناظور",
    "lat": 35.16813,
    "lng": -2.93352
  },
  {
    "id": 9022,
    "name": "سطات",
    "lat": 33.00103,
    "lng": -7.61662
  },
  {
    "id": 9023,
    "name": "العرايش",
    "lat": 35.19321,
    "lng": -6.15572
  },
  {
    "id": 9024,
    "name": "القصر الكبير",
    "lat": 35.00044,
    "lng": -5.90378
  },
  {
    "id": 9025,
    "name": "الخميسات",
    "lat": 33.82404,
    "lng": -6.06627
  },
  {
    "id": 9026,
    "name": "كلميم",
    "lat": 28.98696,
    "lng": -10.05738
  }
]